[
  {
    "id": 714482,
    "name": "Madrid",
    "region": "Madrid",
    "country": "Spain",
    "lat": 40.4,
    "lon": -3.68,
    "url": "madrid-madrid-spain"
  },
  {
    "id": 708204,
    "name": "Entrevias",
    "region": "Madrid",
    "country": "Spain",
    "lat": 40.4,
    "lon": -3.68,
    "url": "entrevias-madrid-spain"
  },
  {
    "id": 699183,
    "name": "Barrio Puente De Vallecas",
    "region": "Madrid",
    "country": "Spain",
    "lat": 40.4,
    "lon": -3.65,
    "url": "barrio-puente-de-vallecas-madrid-spain"
  },
  {
    "id": 719178,
    "name": "Puente De Vallecas",
    "region": "Madrid",
    "country": "Spain",
    "lat": 40.4,
    "lon": -3.65,
    "url": "puente-de-vallecas-madrid-spain"
  },
  {
    "id": 716110,
    "name": "Moratalaz",
    "region": "Madrid",
    "country": "Spain",
    "lat": 40.42,
    "lon": -3.65,
    "url": "moratalaz-madrid-spain"
  },
  {
    "id": 699155,
    "name": "Barrio Moratalaz",
    "region": "Madrid",
    "country": "Spain",
    "lat": 40.42,
    "lon": -3.65,
    "url": "barrio-moratalaz-madrid-spain"
  },
  {
    "id": 699181,
    "name": "Barrio Pueblo Nuevo-Ventas",
    "region": "Madrid",
    "country": "Spain",
    "lat": 40.42,
    "lon": -3.63,
    "url": "barrio-pueblo-nuevo-ventas-madrid-spain"
  },
  {
    "id": 719142,
    "name": "Pueblo Nuevo-Ventas",
    "region": "Madrid",
    "country": "Spain",
    "lat": 40.42,
    "lon": -3.63,
    "url": "pueblo-nuevo-ventas-madrid-spain"
  },
  {
    "id": 701409,
    "name": "Carabanchel Bajo",
    "region": "Madrid",
    "country": "Spain",
    "lat": 40.38,
    "lon": -3.73,
    "url": "carabanchel-bajo-madrid-spain"
  },
  {
    "id": 717909,
    "name": "Pavones",
    "region": "Madrid",
    "country": "Spain",
    "lat": 40.4,
    "lon": -3.62,
    "url": "pavones-madrid-spain"
  }
]
